BMS-2 Temperature (Celcius),BMS-2 SoC (%),BMS-1 Temperature (Celcius),BMS-1 SoC (%),Trip B (Km),Trip A (Km),Battery Efficiency (Km/kWh),Range Approximation (Km),Motion Roll (Degree),Motion Pitch (Degree),Battery Voltage (mVolt),Signal Quality (%),Odometer2 (m),Odometer (Km),Vehicle Speed (Km/hr),GPS Heading (Degree),GPS VDOP,GPS HDOP,GPS Altitude (m),GPS Latitude,GPS Longitude,BMS-2 Current (Ampere),BMS-2 Voltage (Volt),BMS-1 Current (Ampere),BMS-1 Voltage (Volt),Events Group,Driver ID,RTC Log Datetime,RTC Send Datetime,Sequential ID,Frame ID (Type),Size (Bytes),CRC
0.00,0,0.00,0,0,0,45,211,-7,14,4.014,67,39.576,5.296,0,0,3,2,6.2,-7.4334744,112.6934528,0.00,0.00,0.00,0.00,0000000000000000,NONE,"Fri, 16 Oct 2020, 07:55:35","Fri, 16 Oct 2020, 08:01:16",28.573,2 (Full),94,4CC83EA0
0.00,0,0.00,0,0,0,40,216,-7,14,4.014,67,39.576,5.296,0,0,2,1,6.2,-7.4334592,112.6934528,0.00,0.00,0.00,0.00,0000000000000000,NONE,"Fri, 16 Oct 2020, 07:55:30","Fri, 16 Oct 2020, 08:01:15",28.572,2 (Full),94,7E2CC40E
0.00,0,0.00,0,0,0,35,221,-7,14,4.014,67,39.576,5.296,0,0,2,1,5.9,-7.433428,112.6934784,0.00,0.00,0.00,0.00,0000000000000000,NONE,"Fri, 16 Oct 2020, 07:55:25","Fri, 16 Oct 2020, 08:01:13",28.571,2 (Full),94,C502B35F
0.00,0,0.00,0,0,0,30,226,-7,14,4.014,67,39.576,5.296,0,0,2,1,5.5,-7.433452,112.6934784,0.00,0.00,0.00,0.00,0000000000000000,NONE,"Fri, 16 Oct 2020, 07:55:20","Fri, 16 Oct 2020, 08:01:12",28.570,2 (Full),94,077B940A
0.00,0,0.00,0,0,0,25,231,-7,14,4.014,67,39.576,5.296,0,0,2,1,5.3,-7.4334584,112.6934528,0.00,0.00,0.00,0.00,0000000000000000,NONE,"Fri, 16 Oct 2020, 07:55:15","Fri, 16 Oct 2020, 08:01:10",28.569,2 (Full),94,4B1945E5
0.00,0,0.00,0,0,0,20,236,-7,14,4.014,67,39.576,5.296,0,0,2,1,5,-7.433488,112.6934528,0.00,0.00,0.00,0.00,0000000000000000,NONE,"Fri, 16 Oct 2020, 07:55:10","Fri, 16 Oct 2020, 08:01:09",28.568,2 (Full),94,07BF3F40
0.00,0,0.00,0,0,0,15,241,-7,14,4.014,67,39.576,5.296,0,0,1,1,4.7,-7.4335016,112.69344,0.00,0.00,0.00,0.00,0000000000000000,NONE,"Fri, 16 Oct 2020, 07:55:05","Fri, 16 Oct 2020, 08:01:07",28.567,2 (Full),94,51C717F7
0.00,0,0.00,0,0,0,10,246,-7,14,4.014,67,39.576,5.296,0,0,1,1,4.7,-7.4334896,112.6934528,0.00,0.00,0.00,0.00,0000000000000000,NONE,"Fri, 16 Oct 2020, 07:55:00","Fri, 16 Oct 2020, 08:01:06",28.566,2 (Full),94,6F548E45
0.00,0,0.00,0,0,0,5,251,-7,14,4.014,67,39.576,5.296,0,0,1,1,4.8,-7.4334888,112.69344,0.00,0.00,0.00,0.00,0000000000000000,NONE,"Fri, 16 Oct 2020, 07:54:55","Fri, 16 Oct 2020, 08:01:05",28.565,2 (Full),94,5CB2D41E
0.00,0,0.00,0,0,0,0,0,-7,14,4.014,70,39.576,5.296,0,0,1,1,5.1,-7.4334968,112.69344,0.00,0.00,0.00,0.00,0000000000000000,NONE,"Fri, 16 Oct 2020, 07:54:50","Fri, 16 Oct 2020, 08:01:00",28.564,2 (Full),94,4F7CC618
0.00,0,0.00,0,0,0,251,5,-7,14,4.014,67,39.576,5.296,0,0,1,1,5.2,-7.4334888,112.69344,0.00,0.00,0.00,0.00,0000000000000000,NONE,"Fri, 16 Oct 2020, 07:54:45","Fri, 16 Oct 2020, 08:00:59",28.563,2 (Full),94,50D8F178
0.00,0,0.00,0,0,0,246,10,-7,14,4.014,67,39.576,5.296,0,0,1,1,5.3,-7.4334696,112.69344,0.00,0.00,0.00,0.00,0000000000000000,NONE,"Fri, 16 Oct 2020, 07:54:40","Fri, 16 Oct 2020, 08:00:57",28.562,2 (Full),94,8B50E158
0.00,0,0.00,0,0,0,241,15,-7,14,4.014,67,39.576,5.296,0,0,1,1,5.4,-7.433448,112.6934528,0.00,0.00,0.00,0.00,0000000000000000,NONE,"Fri, 16 Oct 2020, 07:54:35","Fri, 16 Oct 2020, 08:00:56",28.561,2 (Full),94,64E8181C
0.00,0,0.00,0,0,0,236,20,-7,14,4.014,67,39.576,5.296,0,0,2,1,5.4,-7.433448,112.6934528,0.00,0.00,0.00,0.00,0000000000000000,NONE,"Fri, 16 Oct 2020, 07:54:30","Fri, 16 Oct 2020, 08:00:55",28.560,2 (Full),94,19C231A4
0.00,0,0.00,0,0,0,231,25,-7,14,4.014,67,39.576,5.296,0,0,2,1,5.4,-7.4334456,112.6934528,0.00,0.00,0.00,0.00,0000000000000000,NONE,"Fri, 16 Oct 2020, 07:54:25","Fri, 16 Oct 2020, 08:00:44",28.559,2 (Full),94,5453A3C9
0.00,0,0.00,0,0,0,226,30,-7,14,4.014,67,39.576,5.296,0,0,2,1,5.6,-7.43342,112.6934528,0.00,0.00,0.00,0.00,0000000000000000,NONE,"Fri, 16 Oct 2020, 07:54:20","Fri, 16 Oct 2020, 08:00:43",28.558,2 (Full),94,CFD11FBD
0.00,0,0.00,0,0,0,221,35,-7,14,4.014,64,39.576,5.296,0,0,2,1,5.8,-7.4334048,112.6934528,0.00,0.00,0.00,0.00,0000000000000000,NONE,"Fri, 16 Oct 2020, 07:54:15","Fri, 16 Oct 2020, 08:00:41",28.557,2 (Full),94,0564D2BC
0.00,0,0.00,0,0,0,216,40,-7,14,4.014,67,39.576,5.296,0,0,2,1,6,-7.433372,112.6934784,0.00,0.00,0.00,0.00,0000000000000000,NONE,"Fri, 16 Oct 2020, 07:54:10","Fri, 16 Oct 2020, 08:00:40",28.556,2 (Full),94,BB4C7D66
0.00,0,0.00,0,0,0,211,45,-7,14,4.032,67,39.576,5.296,0,0,1,1,5.5,-7.4334016,112.6934528,0.00,0.00,0.00,0.00,0000000000000000,NONE,"Fri, 16 Oct 2020, 07:54:05","Fri, 16 Oct 2020, 08:00:38",28.555,2 (Full),94,E683ADEF
0.00,0,0.00,0,0,0,206,50,-7,14,4.014,67,39.576,5.296,0,0,2,1,5.3,-7.4334184,112.6934528,0.00,0.00,0.00,0.00,0000000000000000,NONE,"Fri, 16 Oct 2020, 07:54:00","Fri, 16 Oct 2020, 08:00:37",28.554,2 (Full),94,2219EA8C
0.00,0,0.00,0,0,0,201,55,-7,14,4.032,67,39.576,5.296,0,0,2,1,5.2,-7.4334272,112.69344,0.00,0.00,0.00,0.00,0000000000000000,NONE,"Fri, 16 Oct 2020, 07:53:55","Fri, 16 Oct 2020, 08:00:36",28.553,2 (Full),94,38D5DE7E
0.00,0,0.00,0,0,0,196,60,-7,14,4.014,67,39.576,5.296,0,0,2,1,5,-7.433436,112.69344,0.00,0.00,0.00,0.00,0000000000000000,NONE,"Fri, 16 Oct 2020, 07:53:50","Fri, 16 Oct 2020, 08:00:35",28.552,2 (Full),94,D3B24157
0.00,0,0.00,0,0,0,161,95,-7,14,4.014,67,39.576,5.296,0,0,2,1,4.7,-7.4334384,112.6934528,0.00,0.00,0.00,0.00,0000000000000000,NONE,"Fri, 16 Oct 2020, 07:53:15","Fri, 16 Oct 2020, 08:00:22",28.545,2 (Full),94,DBB0F484
0.00,0,0.00,0,0,0,156,100,-7,14,4.014,67,39.576,5.296,0,0,2,1,4.8,-7.4334112,112.6934528,0.00,0.00,0.00,0.00,0000000000000000,NONE,"Fri, 16 Oct 2020, 07:53:10","Fri, 16 Oct 2020, 08:00:21",28.544,2 (Full),94,FC829426
0.00,0,0.00,0,0,0,151,105,-7,14,4.032,67,39.576,5.296,0,0,1,1,4.9,-7.4333936,112.6934784,0.00,0.00,0.00,0.00,0000000000000000,NONE,"Fri, 16 Oct 2020, 07:53:05","Fri, 16 Oct 2020, 08:00:19",28.543,2 (Full),94,214E88A7
0.00,0,0.00,0,0,0,146,110,-7,14,4.014,67,39.576,5.296,0,0,2,1,4.8,-7.4333984,112.6934528,0.00,0.00,0.00,0.00,0000000000000000,NONE,"Fri, 16 Oct 2020, 07:53:00","Fri, 16 Oct 2020, 08:00:18",28.542,2 (Full),94,C9CCFD76
0.00,0,0.00,0,0,0,141,115,-7,14,3.996,64,39.576,5.296,0,0,2,1,4.7,-7.4333976,112.6934784,0.00,0.00,0.00,0.00,0000000000000000,NONE,"Fri, 16 Oct 2020, 07:52:55","Fri, 16 Oct 2020, 08:00:17",28.541,2 (Full),94,1F09FFA2
0.00,0,0.00,0,0,0,136,120,-7,14,4.032,67,39.576,5.296,1,0,2,1,4.2,-7.4334232,112.6934528,0.00,0.00,0.00,0.00,0000000000000000,NONE,"Fri, 16 Oct 2020, 07:52:50","Fri, 16 Oct 2020, 08:00:15",28.540,2 (Full),94,F4669CBB
0.00,0,0.00,0,0,0,131,125,-7,14,4.014,64,39.576,5.296,0,0,1,1,4,-7.433444,112.6934528,0.00,0.00,0.00,0.00,0000000000000000,NONE,"Fri, 16 Oct 2020, 07:52:45","Fri, 16 Oct 2020, 08:00:14",28.539,2 (Full),94,FBBE8573
0.00,0,0.00,0,0,0,126,130,-7,14,4.032,67,39.576,5.296,0,0,1,1,3.7,-7.4334544,112.6934528,0.00,0.00,0.00,0.00,0000000000000000,NONE,"Fri, 16 Oct 2020, 07:52:40","Fri, 16 Oct 2020, 08:00:13",28.538,2 (Full),94,0F1C5AAD
0.00,0,0.00,0,0,0,121,135,-7,14,4.014,67,39.576,5.296,0,0,1,1,3.7,-7.4334584,112.6934528,0.00,0.00,0.00,0.00,0000000000000000,NONE,"Fri, 16 Oct 2020, 07:52:35","Fri, 16 Oct 2020, 08:00:12",28.537,2 (Full),94,C4F8F41C
0.00,0,0.00,0,0,0,116,140,-7,14,4.014,67,39.576,5.296,0,0,1,1,3.6,-7.4334616,112.6934528,0.00,0.00,0.00,0.00,0000000000000000,NONE,"Fri, 16 Oct 2020, 07:52:30","Fri, 16 Oct 2020, 08:00:10",28.536,2 (Full),94,0D1F6239
0.00,0,0.00,0,0,0,111,145,-7,14,4.014,67,39.576,5.296,0,0,1,1,3.6,-7.4334696,112.69344,0.00,0.00,0.00,0.00,0000000000000000,NONE,"Fri, 16 Oct 2020, 07:52:25","Fri, 16 Oct 2020, 08:00:09",28.535,2 (Full),94,4AA45408
0.00,0,0.00,0,0,0,106,150,-7,14,4.032,67,39.576,5.296,0,0,1,1,3.3,-7.4334912,112.69344,0.00,0.00,0.00,0.00,0000000000000000,NONE,"Fri, 16 Oct 2020, 07:52:20","Fri, 16 Oct 2020, 08:00:07",28.534,2 (Full),94,38671F6F
0.00,0,0.00,0,0,0,101,155,-7,14,4.014,67,39.576,5.296,0,0,1,1,3.2,-7.4335,112.69344,0.00,0.00,0.00,0.00,0000000000000000,NONE,"Fri, 16 Oct 2020, 07:52:15","Fri, 16 Oct 2020, 08:00:06",28.533,2 (Full),94,FBE92300
0.00,0,0.00,0,0,0,96,160,-7,14,4.014,67,39.576,5.296,1,0,2,1,2.8,-7.4335264,112.6934272,0.00,0.00,0.00,0.00,0000000000000000,NONE,"Fri, 16 Oct 2020, 07:52:10","Fri, 16 Oct 2020, 08:00:05",28.532,2 (Full),94,FCA2CF31
0.00,0,0.00,0,0,0,91,165,-7,14,4.014,67,39.576,5.296,0,0,2,1,2.7,-7.4335392,112.6934016,0.00,0.00,0.00,0.00,0000000000000000,NONE,"Fri, 16 Oct 2020, 07:52:05","Fri, 16 Oct 2020, 08:00:04",28.531,2 (Full),94,A9B70434
0.00,0,0.00,0,0,0,86,170,-7,14,4.032,67,39.576,5.296,0,0,1,1,2.7,-7.4335416,112.6934016,0.00,0.00,0.00,0.00,0000000000000000,NONE,"Fri, 16 Oct 2020, 07:52:00","Fri, 16 Oct 2020, 08:00:02",28.530,2 (Full),94,CBF8FB35
0.00,0,0.00,0,0,0,81,175,-7,14,4.014,67,39.576,5.296,0,0,1,1,2.7,-7.433548,112.6934016,0.00,0.00,0.00,0.00,0000000000000000,NONE,"Fri, 16 Oct 2020, 07:51:55","Fri, 16 Oct 2020, 08:00:01",28.529,2 (Full),94,8BCB5D09
0.00,0,0.00,0,0,0,76,180,-7,14,4.032,67,39.576,5.296,0,0,1,1,2.8,-7.4335512,112.6934016,0.00,0.00,0.00,0.00,0000000000000000,NONE,"Fri, 16 Oct 2020, 07:51:50","Fri, 16 Oct 2020, 07:59:59",28.528,2 (Full),94,95134DFD
0.00,0,0.00,0,0,0,71,185,-7,14,4.014,64,39.576,5.296,0,0,1,1,2.8,-7.4335496,112.6934016,0.00,0.00,0.00,0.00,0000000000000000,NONE,"Fri, 16 Oct 2020, 07:51:45","Fri, 16 Oct 2020, 07:59:57",28.527,2 (Full),94,505D3C78
0.00,0,0.00,0,0,0,66,190,-7,14,4.032,67,39.576,5.296,0,0,1,1,2.8,-7.433548,112.6934016,0.00,0.00,0.00,0.00,0000000000000000,NONE,"Fri, 16 Oct 2020, 07:51:40","Fri, 16 Oct 2020, 07:59:56",28.526,2 (Full),94,F0862801
0.00,0,0.00,0,0,0,61,195,-7,14,4.014,64,39.576,5.296,0,0,1,1,2.7,-7.433564,112.6933888,0.00,0.00,0.00,0.00,0000000000000000,NONE,"Fri, 16 Oct 2020, 07:51:35","Fri, 16 Oct 2020, 07:59:55",28.525,2 (Full),94,C0BBF464
0.00,0,0.00,0,0,0,56,200,-7,14,4.014,67,39.576,5.296,0,0,1,1,2.6,-7.433572,112.6933888,0.00,0.00,0.00,0.00,0000000000000000,NONE,"Fri, 16 Oct 2020, 07:51:30","Fri, 16 Oct 2020, 07:59:53",28.524,2 (Full),94,75C5ED3A
0.00,0,0.00,0,0,0,51,205,-7,14,4.032,67,39.576,5.296,0,0,1,1,2.4,-7.4335864,112.693376,0.00,0.00,0.00,0.00,0000000000000000,NONE,"Fri, 16 Oct 2020, 07:51:25","Fri, 16 Oct 2020, 07:59:52",28.523,2 (Full),94,8616BA31
0.00,0,0.00,0,0,0,46,210,-7,14,4.014,67,39.576,5.296,0,0,2,1,2.2,-7.4335992,112.693376,0.00,0.00,0.00,0.00,0000000000000000,NONE,"Fri, 16 Oct 2020, 07:51:20","Fri, 16 Oct 2020, 07:59:51",28.522,2 (Full),94,EAC4101E
0.00,0,0.00,0,0,0,41,215,-7,14,4.014,67,39.576,5.296,0,0,2,1,2.2,-7.4335944,112.693376,0.00,0.00,0.00,0.00,0000000000000000,NONE,"Fri, 16 Oct 2020, 07:51:15","Fri, 16 Oct 2020, 07:59:49",28.521,2 (Full),94,9CBD9267
0.00,0,0.00,0,0,0,36,220,-7,14,4.014,67,39.576,5.296,0,0,2,1,2.4,-7.433592,112.693376,0.00,0.00,0.00,0.00,0000000000000000,NONE,"Fri, 16 Oct 2020, 07:51:10","Fri, 16 Oct 2020, 07:59:48",28.520,2 (Full),94,DE12FC8C
0.00,0,0.00,0,0,0,31,225,-7,14,4.032,67,39.576,5.296,0,0,2,1,2.4,-7.4335928,112.6933888,0.00,0.00,0.00,0.00,0000000000000000,NONE,"Fri, 16 Oct 2020, 07:51:05","Fri, 16 Oct 2020, 07:59:47",28.519,2 (Full),94,EBF2FA5D
0.00,0,0.00,0,0,0,26,230,-7,14,4.014,64,39.576,5.296,0,0,1,1,2.5,-7.4335872,112.6933888,0.00,0.00,0.00,0.00,0000000000000000,NONE,"Fri, 16 Oct 2020, 07:51:00","Fri, 16 Oct 2020, 07:59:46",28.518,2 (Full),94,DE25B969
0.00,0,0.00,0,0,0,21,235,-7,14,3.996,67,39.576,5.296,0,0,2,1,2.7,-7.4335792,112.6933888,0.00,0.00,0.00,0.00,0000000000000000,NONE,"Fri, 16 Oct 2020, 07:50:55","Fri, 16 Oct 2020, 07:59:44",28.517,2 (Full),94,BE0AA265
0.00,0,0.00,0,0,0,16,240,-7,14,4.014,67,39.576,5.296,0,0,1,1,2.9,-7.4335688,112.6933888,0.00,0.00,0.00,0.00,0000000000000000,NONE,"Fri, 16 Oct 2020, 07:50:50","Fri, 16 Oct 2020, 07:59:43",28.516,2 (Full),94,D67DBD92
0.00,0,0.00,0,0,0,11,245,-7,14,4.032,67,39.576,5.296,0,0,1,1,2.9,-7.43356,112.6934016,0.00,0.00,0.00,0.00,0000000000000000,NONE,"Fri, 16 Oct 2020, 07:50:45","Fri, 16 Oct 2020, 07:59:39",28.515,2 (Full),94,ECAB8AE8
0.00,0,0.00,0,0,0,6,250,-7,14,4.014,67,39.576,5.296,0,0,1,1,2.8,-7.4335568,112.6934016,0.00,0.00,0.00,0.00,0000000000000000,NONE,"Fri, 16 Oct 2020, 07:50:40","Fri, 16 Oct 2020, 07:59:38",28.514,2 (Full),94,9245669F
0.00,0,0.00,0,0,0,1,255,-7,14,4.032,67,39.576,5.296,0,0,1,1,2.8,-7.4335512,112.6934016,0.00,0.00,0.00,0.00,0000000000000000,NONE,"Fri, 16 Oct 2020, 07:50:35","Fri, 16 Oct 2020, 07:59:36",28.513,2 (Full),94,79005290
0.00,0,0.00,0,0,0,252,4,-7,14,4.014,70,39.576,5.296,0,0,1,1,2.8,-7.4335536,112.6934016,0.00,0.00,0.00,0.00,0000000000000000,NONE,"Fri, 16 Oct 2020, 07:50:30","Fri, 16 Oct 2020, 07:59:35",28.512,2 (Full),94,DE4D8E82
0.00,0,0.00,0,0,0,247,9,-7,14,4.032,67,39.576,5.296,0,0,1,1,2.8,-7.4335544,112.6934016,0.00,0.00,0.00,0.00,0000000000000000,NONE,"Fri, 16 Oct 2020, 07:50:25","Fri, 16 Oct 2020, 07:59:34",28.511,2 (Full),94,7AC9D963
0.00,0,0.00,0,0,0,242,14,-7,14,4.014,67,39.576,5.296,0,0,1,1,2.8,-7.4335592,112.6934016,0.00,0.00,0.00,0.00,0000000000000000,NONE,"Fri, 16 Oct 2020, 07:50:20","Fri, 16 Oct 2020, 07:59:30",28.510,2 (Full),94,7367B952
0.00,0,0.00,0,0,0,237,19,-7,14,4.032,70,39.576,5.296,0,0,1,1,2.9,-7.4335624,112.6934272,0.00,0.00,0.00,0.00,0000000000000000,NONE,"Fri, 16 Oct 2020, 07:50:15","Fri, 16 Oct 2020, 07:59:29",28.509,2 (Full),94,5223151D
0.00,0,0.00,0,0,0,232,24,-7,14,4.032,70,39.576,5.296,0,0,1,1,3,-7.4335576,112.6934272,0.00,0.00,0.00,0.00,0000000000000000,NONE,"Fri, 16 Oct 2020, 07:50:10","Fri, 16 Oct 2020, 07:59:28",28.508,2 (Full),94,165B53F9
0.00,0,0.00,0,0,0,227,29,-7,14,4.014,70,39.576,5.296,0,0,1,1,3.3,-7.4335416,112.69344,0.00,0.00,0.00,0.00,0000000000000000,NONE,"Fri, 16 Oct 2020, 07:50:05","Fri, 16 Oct 2020, 07:59:24",28.507,2 (Full),94,BEA427A1
0.00,0,0.00,0,0,0,222,34,-7,14,4.032,70,39.576,5.296,0,0,1,1,3.4,-7.4335288,112.6934528,0.00,0.00,0.00,0.00,0000000000000000,NONE,"Fri, 16 Oct 2020, 07:50:00","Fri, 16 Oct 2020, 07:59:22",28.506,2 (Full),94,770D7321
0.00,0,0.00,0,0,0,217,39,-7,14,4.014,67,39.576,5.296,0,0,1,1,3.4,-7.43352,112.6934784,0.00,0.00,0.00,0.00,0000000000000000,NONE,"Fri, 16 Oct 2020, 07:49:55","Fri, 16 Oct 2020, 07:59:21",28.505,2 (Full),94,34F064A0
0.00,0,0.00,0,0,0,212,44,-7,14,4.032,67,39.576,5.296,0,0,1,1,3.4,-7.4335104,112.6934784,0.00,0.00,0.00,0.00,0000000000000000,NONE,"Fri, 16 Oct 2020, 07:49:50","Fri, 16 Oct 2020, 07:59:18",28.504,2 (Full),94,93147076
0.00,0,0.00,0,0,0,207,49,-7,14,4.014,67,39.576,5.296,0,0,1,1,3.4,-7.4335072,112.6934784,0.00,0.00,0.00,0.00,0000000000000000,NONE,"Fri, 16 Oct 2020, 07:49:45","Fri, 16 Oct 2020, 07:59:15",28.503,2 (Full),94,7AF27E72
0.00,0,0.00,0,0,0,202,54,-7,14,4.032,67,39.576,5.296,0,0,1,1,3.4,-7.4335064,112.6934912,0.00,0.00,0.00,0.00,0000000000000000,NONE,"Fri, 16 Oct 2020, 07:49:40","Fri, 16 Oct 2020, 07:59:12",28.502,2 (Full),94,CFD57D22
0.00,0,0.00,0,0,0,197,59,-7,14,4.014,70,39.576,5.296,0,0,1,1,3.4,-7.4335072,112.6934912,0.00,0.00,0.00,0.00,0000000000000000,NONE,"Fri, 16 Oct 2020, 07:49:35","Fri, 16 Oct 2020, 07:59:10",28.501,2 (Full),94,8E6FF8D0
0.00,0,0.00,0,0,0,192,64,-7,14,4.032,67,39.576,5.296,0,0,1,1,3.4,-7.4335064,112.6934912,0.00,0.00,0.00,0.00,0000000000000000,NONE,"Fri, 16 Oct 2020, 07:49:30","Fri, 16 Oct 2020, 07:59:09",28.500,2 (Full),94,C6A94A83
0.00,0,0.00,0,0,0,187,69,-7,14,4.014,67,39.576,5.296,0,0,1,1,3.4,-7.4335024,112.6934784,0.00,0.00,0.00,0.00,0000000000000000,NONE,"Fri, 16 Oct 2020, 07:49:25","Fri, 16 Oct 2020, 07:59:08",28.499,2 (Full),94,0B1E8E3B
0.00,0,0.00,0,0,0,182,74,-7,14,4.032,67,39.576,5.296,0,0,1,1,3.3,-7.4334968,112.6934784,0.00,0.00,0.00,0.00,0000000000000000,NONE,"Fri, 16 Oct 2020, 07:49:20","Fri, 16 Oct 2020, 07:59:06",28.498,2 (Full),94,70E46CF5
0.00,0,0.00,0,0,0,177,79,-7,14,4.014,67,39.576,5.296,0,0,1,1,3.3,-7.4334944,112.6934784,0.00,0.00,0.00,0.00,0000000000000000,NONE,"Fri, 16 Oct 2020, 07:49:15","Fri, 16 Oct 2020, 07:59:05",28.497,2 (Full),94,8058074B
0.00,0,0.00,0,0,0,172,84,-7,14,4.032,67,39.576,5.296,0,0,1,1,3.3,-7.4334856,112.6934912,0.00,0.00,0.00,0.00,0000000000000000,NONE,"Fri, 16 Oct 2020, 07:49:10","Fri, 16 Oct 2020, 07:59:04",28.496,2 (Full),94,0D61B8F9
0.00,0,0.00,0,0,0,167,89,-7,14,4.014,64,39.576,5.296,0,0,2,1,3.3,-7.4334848,112.6934912,0.00,0.00,0.00,0.00,0000000000000000,NONE,"Fri, 16 Oct 2020, 07:49:05","Fri, 16 Oct 2020, 07:59:02",28.495,2 (Full),94,E4CC6DAD
0.00,0,0.00,0,0,0,162,94,-7,14,4.014,67,39.576,5.296,0,0,2,1,3.3,-7.4334856,112.6934912,0.00,0.00,0.00,0.00,0000000000000000,NONE,"Fri, 16 Oct 2020, 07:49:00","Fri, 16 Oct 2020, 07:59:01",28.494,2 (Full),94,6853CF53
0.00,0,0.00,0,0,0,157,99,-7,14,4.014,67,39.576,5.296,0,0,1,1,3.3,-7.43348,112.6934912,0.00,0.00,0.00,0.00,0000000000000000,NONE,"Fri, 16 Oct 2020, 07:48:55","Fri, 16 Oct 2020, 07:58:56",28.493,2 (Full),94,078CB900
0.00,0,0.00,0,0,0,152,104,-7,14,3.996,70,39.576,5.296,0,0,1,1,3.3,-7.4334728,112.6934912,0.00,0.00,0.00,0.00,0000000000000000,NONE,"Fri, 16 Oct 2020, 07:48:50","Fri, 16 Oct 2020, 07:58:53",28.492,2 (Full),94,725DBF18
0.00,0,0.00,0,0,0,147,109,-7,14,4.014,70,39.576,5.296,0,0,1,1,3.3,-7.4334696,112.6934912,0.00,0.00,0.00,0.00,0000000000000000,NONE,"Fri, 16 Oct 2020, 07:48:45","Fri, 16 Oct 2020, 07:58:52",28.491,2 (Full),94,9CDAFD4D
0.00,0,0.00,0,0,0,93,163,-7,14,4.032,70,38.538,5.295,67,32,1,1,2.3,-7.4430712,112.6962048,0.00,0.00,0.00,0.00,0000000000000000,NONE,"Fri, 16 Oct 2020, 07:43:35","Fri, 16 Oct 2020, 07:43:35",28.429,2 (Full),94,232FFB98
0.00,0,0.00,0,0,0,88,168,-7,14,4.032,70,38.482,5.295,66,40,1,1,2.3,-7.4434736,112.6958976,0.00,0.00,0.00,0.00,0000000000000000,NONE,"Fri, 16 Oct 2020, 07:43:30","Fri, 16 Oct 2020, 07:43:30",28.428,2 (Full),94,694EE0C7
0.00,0,0.00,0,0,0,83,173,-7,14,3.996,67,38.369,5.295,67,358,2,1,2.4,-7.4444296,112.6955776,0.00,0.00,0.00,0.00,0000000000000000,NONE,"Fri, 16 Oct 2020, 07:43:25","Fri, 16 Oct 2020, 07:43:25",28.427,2 (Full),94,5204245D
0.00,0,0.00,0,0,0,78,178,-7,14,3.996,58,38.261,5.295,55,0,2,1,2,-7.445376,112.6957184,0.00,0.00,0.00,0.00,0000000000000000,NONE,"Fri, 16 Oct 2020, 07:43:20","Fri, 16 Oct 2020, 07:43:22",28.426,2 (Full),94,8BB7F5D5
0.00,0,0.00,0,0,0,73,183,-7,14,4.068,58,38.215,5.295,42,8,1,1,1.9,-7.4457504,112.69568,0.00,0.00,0.00,0.00,0000000000000000,NONE,"Fri, 16 Oct 2020, 07:43:15","Fri, 16 Oct 2020, 07:43:21",28.425,2 (Full),94,43A56305
0.00,0,0.00,0,0,0,68,188,-7,14,4.032,58,38.163,5.295,24,82,1,1,1.6,-7.4460896,112.6955392,0.00,0.00,0.00,0.00,0000000000000000,NONE,"Fri, 16 Oct 2020, 07:43:10","Fri, 16 Oct 2020, 07:43:10",28.424,2 (Full),94,89DA49DE
0.00,0,0.00,0,0,0,63,193,-7,14,4.050,54,38.143,5.295,25,106,1,1,1.6,-7.4460328,112.6952448,0.00,0.00,0.00,0.00,0000000000000000,NONE,"Fri, 16 Oct 2020, 07:43:05","Fri, 16 Oct 2020, 07:43:05",28.423,2 (Full),94,9FBAB64B
0.00,0,0.00,0,0,0,58,198,-7,14,4.050,58,38.123,5.295,39,106,1,1,1.6,-7.4459592,112.6950016,0.00,0.00,0.00,0.00,0000000000000000,NONE,"Fri, 16 Oct 2020, 07:43:00","Fri, 16 Oct 2020, 07:43:00",28.422,2 (Full),94,A63D8393
0.00,0,0.00,0,0,0,53,203,-7,14,4.050,58,38.066,5.295,19,104,1,1,1.7,-7.4458232,112.6945536,0.00,0.00,0.00,0.00,0000000000000000,NONE,"Fri, 16 Oct 2020, 07:42:55","Fri, 16 Oct 2020, 07:42:55",28.421,2 (Full),94,D6E2A568
0.00,0,0.00,0,0,0,48,208,-7,14,4.050,64,38.021,5.295,54,110,2,1,1.7,-7.4456464,112.6940416,0.00,0.00,0.00,0.00,0000000000000000,NONE,"Fri, 16 Oct 2020, 07:42:50","Fri, 16 Oct 2020, 07:42:51",28.420,2 (Full),94,24E8E021
0.00,0,0.00,0,0,0,43,213,-7,14,4.050,70,37.976,5.295,59,110,2,1,1.6,-7.4454896,112.693632,0.00,0.00,0.00,0.00,0000000000000000,NONE,"Fri, 16 Oct 2020, 07:42:45","Fri, 16 Oct 2020, 07:42:45",28.419,2 (Full),94,14236EA0
0.00,0,0.00,0,0,0,38,218,-7,14,4.050,74,37.883,5.295,33,112,2,1,1.7,-7.445224,112.6928896,0.00,0.00,0.00,0.00,0000000000000000,NONE,"Fri, 16 Oct 2020, 07:42:40","Fri, 16 Oct 2020, 07:42:40",28.418,2 (Full),94,81FF15AD
0.00,0,0.00,0,0,0,33,223,-7,14,4.068,80,37.817,5.295,45,112,2,1,1.7,-7.4449784,112.6922624,0.00,0.00,0.00,0.00,0000000000000000,NONE,"Fri, 16 Oct 2020, 07:42:35","Fri, 16 Oct 2020, 07:42:35",28.417,2 (Full),94,EDBBFB1B
0.00,0,0.00,0,0,0,28,228,-7,14,4.050,90,37.779,5.295,31,114,2,1,1.7,-7.4448648,112.6920064,0.00,0.00,0.00,0.00,0000000000000000,NONE,"Fri, 16 Oct 2020, 07:42:30","Fri, 16 Oct 2020, 07:42:30",28.416,2 (Full),94,25F76EBE
0.00,0,0.00,0,0,0,23,233,-7,14,4.032,90,37.714,5.294,52,116,3,1,1.7,-7.4445736,112.6913792,0.00,0.00,0.00,0.00,0000000000000000,NONE,"Fri, 16 Oct 2020, 07:42:25","Fri, 16 Oct 2020, 07:42:27",28.415,2 (Full),94,41DFCE06
0.00,0,0.00,0,0,0,18,238,-7,14,4.032,3,37.627,5.294,55,112,2,1,2,-7.4442352,112.690624,0.00,0.00,0.00,0.00,0000000000000000,NONE,"Fri, 16 Oct 2020, 07:42:20","Fri, 16 Oct 2020, 07:42:25",28.414,2 (Full),94,1DFA6E9D
0.00,0,0.00,0,0,0,13,243,-7,14,4.032,3,37.582,5.294,52,114,2,1,2,-7.4440656,112.6902656,0.00,0.00,0.00,0.00,0000000000000000,NONE,"Fri, 16 Oct 2020, 07:42:15","Fri, 16 Oct 2020, 07:42:24",28.413,2 (Full),94,255D3D8E
0.00,0,0.00,0,0,0,8,248,-7,14,4.050,3,37.499,5.294,40,114,2,1,2.3,-7.4437328,112.6895872,0.00,0.00,0.00,0.00,0000000000000000,NONE,"Fri, 16 Oct 2020, 07:42:10","Fri, 16 Oct 2020, 07:42:22",28.412,2 (Full),94,BC61384A
0.00,0,0.00,0,0,0,3,253,-7,14,4.050,3,37.436,5.294,33,120,2,1,2.1,-7.4434856,112.6891008,0.00,0.00,0.00,0.00,0000000000000000,NONE,"Fri, 16 Oct 2020, 07:42:05","Fri, 16 Oct 2020, 07:42:20",28.411,2 (Full),94,976ACBB0
0.00,0,0.00,0,0,0,254,2,-7,14,4.050,3,37.409,5.294,20,112,2,1,1.9,-7.4433848,112.6889216,0.00,0.00,0.00,0.00,0000000000000000,NONE,"Fri, 16 Oct 2020, 07:42:00","Fri, 16 Oct 2020, 07:42:00",28.410,2 (Full),94,516F005E
0.00,0,0.00,0,0,0,249,7,-7,14,4.032,45,37.392,5.294,29,114,2,1,1.9,-7.4432544,112.68864,0.00,0.00,0.00,0.00,0000000000000000,NONE,"Fri, 16 Oct 2020, 07:41:55","Fri, 16 Oct 2020, 07:41:55",28.409,2 (Full),94,C5793A73
0.00,0,0.00,0,0,0,244,12,-7,14,4.050,58,37.343,5.294,27,114,2,1,2,-7.4430704,112.6882048,0.00,0.00,0.00,0.00,0000000000000000,NONE,"Fri, 16 Oct 2020, 07:41:50","Fri, 16 Oct 2020, 07:41:50",28.408,2 (Full),94,14CF8D9B
0.00,0,0.00,0,0,0,239,17,-7,14,3.996,61,37.320,5.294,36,110,2,1,1.7,-7.442984,112.688,0.00,0.00,0.00,0.00,0000000000000000,NONE,"Fri, 16 Oct 2020, 07:41:45","Fri, 16 Oct 2020, 07:41:46",28.407,2 (Full),94,71A0321D
0.00,0,0.00,0,0,0,234,22,-7,14,4.014,64,37.264,5.294,34,110,2,1,1.9,-7.4428104,112.6875136,0.00,0.00,0.00,0.00,0000000000000000,NONE,"Fri, 16 Oct 2020, 07:41:40","Fri, 16 Oct 2020, 07:41:44",28.406,2 (Full),94,54357EB8
0.00,0,0.00,0,0,0,229,27,-7,14,4.050,64,37.205,5.294,51,108,2,1,1.9,-7.4426024,112.6869632,0.00,0.00,0.00,0.00,0000000000000000,NONE,"Fri, 16 Oct 2020, 07:41:35","Fri, 16 Oct 2020, 07:41:43",28.405,2 (Full),94,1109E18A
0.00,0,0.00,0,0,0,224,32,-7,14,4.032,64,37.163,5.294,62,108,2,1,1.8,-7.4424616,112.6865536,0.00,0.00,0.00,0.00,0000000000000000,NONE,"Fri, 16 Oct 2020, 07:41:30","Fri, 16 Oct 2020, 07:41:30",28.404,2 (Full),94,BDCA9F0F
0.00,0,0.00,0,0,0,219,37,-7,14,4.032,83,37.060,5.294,58,104,2,1,1.8,-7.4421608,112.6856704,0.00,0.00,0.00,0.00,0000000000000000,NONE,"Fri, 16 Oct 2020, 07:41:25","Fri, 16 Oct 2020, 07:41:25",28.403,2 (Full),94,BD849D54
0.00,0,0.00,0,0,0,214,42,-7,14,4.014,80,36.969,5.294,56,104,1,1,1.8,-7.4419472,112.6848768,0.00,0.00,0.00,0.00,0000000000000000,NONE,"Fri, 16 Oct 2020, 07:41:20","Fri, 16 Oct 2020, 07:41:20",28.402,2 (Full),94,390146A5
0.00,0,0.00,0,0,0,209,47,-7,14,4.014,80,36.922,5.294,53,102,1,1,1.8,-7.4418488,112.6844544,0.00,0.00,0.00,0.00,0000000000000000,NONE,"Fri, 16 Oct 2020, 07:41:15","Fri, 16 Oct 2020, 07:41:17",28.401,2 (Full),94,AEBF0549
0.00,0,0.00,0,0,0,204,52,-7,14,4.050,80,36.837,5.294,54,96,2,1,1.9,-7.4417208,112.6836992,0.00,0.00,0.00,0.00,0000000000000000,NONE,"Fri, 16 Oct 2020, 07:41:10","Fri, 16 Oct 2020, 07:41:10",28.400,2 (Full),94,A030F639
0.00,0,0.00,0,0,0,199,57,-7,14,4.032,77,36.766,5.294,28,48,1,1,2.1,-7.441724,112.6831488,0.00,0.00,0.00,0.00,0000000000000000,NONE,"Fri, 16 Oct 2020, 07:41:05","Fri, 16 Oct 2020, 07:41:05",28.399,2 (Full),94,5BAC4C8B
0.00,0,0.00,0,0,0,194,62,-7,14,4.050,83,36.742,5.293,38,16,1,1,2.4,-7.4419512,112.683008,0.00,0.00,0.00,0.00,0000000000000000,NONE,"Fri, 16 Oct 2020, 07:41:00","Fri, 16 Oct 2020, 07:41:00",28.398,2 (Full),94,1BDA1A34
0.00,0,0.00,0,0,0,189,67,-7,14,4.032,70,36.669,5.293,57,10,2,1,2.4,-7.4426648,112.6828416,0.00,0.00,0.00,0.00,0000000000000000,NONE,"Fri, 16 Oct 2020, 07:40:55","Fri, 16 Oct 2020, 07:40:55",28.397,2 (Full),94,B1EA600C
0.00,0,0.00,0,0,0,184,72,-7,14,4.032,77,36.569,5.293,56,10,1,1,2.3,-7.4435952,112.682688,0.00,0.00,0.00,0.00,0000000000000000,NONE,"Fri, 16 Oct 2020, 07:40:50","Fri, 16 Oct 2020, 07:40:50",28.396,2 (Full),94,404B229D
0.00,0,0.00,0,0,0,179,77,-7,14,4.032,83,36.522,5.293,41,22,2,1,2.3,-7.4439832,112.6825728,0.00,0.00,0.00,0.00,0000000000000000,NONE,"Fri, 16 Oct 2020, 07:40:45","Fri, 16 Oct 2020, 07:40:45",28.395,2 (Full),94,8339A6EE
0.00,0,0.00,0,0,0,174,82,-7,14,4.032,90,36.453,5.293,42,32,1,1,2.2,-7.4445312,112.6822784,0.00,0.00,0.00,0.00,0000000000000000,NONE,"Fri, 16 Oct 2020, 07:40:40","Fri, 16 Oct 2020, 07:40:40",28.394,2 (Full),94,AA1218CB
0.00,0,0.00,0,0,0,169,87,-7,14,4.050,83,36.375,5.293,55,34,1,1,2.2,-7.4451648,112.6818688,0.00,0.00,0.00,0.00,0000000000000000,NONE,"Fri, 16 Oct 2020, 07:40:35","Fri, 16 Oct 2020, 07:40:35",28.393,2 (Full),94,6096C41B
0.00,0,0.00,0,0,0,164,92,-7,14,4.032,87,36.329,5.293,47,32,2,1,2.1,-7.445504,112.6816384,0.00,0.00,0.00,0.00,0000000000000000,NONE,"Fri, 16 Oct 2020, 07:40:30","Fri, 16 Oct 2020, 07:40:30",28.392,2 (Full),94,84E796AC
0.00,0,0.00,0,0,0,159,97,-7,14,4.068,70,36.270,5.293,19,60,1,1,2.1,-7.4458496,112.6813696,0.00,0.00,0.00,0.00,0000000000000000,NONE,"Fri, 16 Oct 2020, 07:40:25","Fri, 16 Oct 2020, 07:40:25",28.391,2 (Full),94,5A7933E0
0.00,0,0.00,0,0,0,154,102,-7,14,4.032,74,36.222,5.293,53,106,2,1,1.9,-7.4458648,112.6808192,0.00,0.00,0.00,0.00,0000000000000000,NONE,"Fri, 16 Oct 2020, 07:40:20","Fri, 16 Oct 2020, 07:40:20",28.390,2 (Full),94,2D5E354D
0.00,0,0.00,0,0,0,149,107,-7,14,4.050,93,36.178,5.293,59,100,2,1,2,-7.445748,112.6804096,0.00,0.00,0.00,0.00,0000000000000000,NONE,"Fri, 16 Oct 2020, 07:40:15","Fri, 16 Oct 2020, 07:40:15",28.389,2 (Full),94,469C8175
0.00,0,0.00,0,0,0,144,112,-7,14,4.032,90,36.085,5.293,47,70,1,1,1.9,-7.4458512,112.679616,0.00,0.00,0.00,0.00,0000000000000000,NONE,"Fri, 16 Oct 2020, 07:40:10","Fri, 16 Oct 2020, 07:40:10",28.388,2 (Full),94,BDEE12D3
0.00,0,0.00,0,0,0,139,117,-7,14,4.050,93,36.009,5.293,59,70,1,1,1.9,-7.4460776,112.6789504,0.00,0.00,0.00,0.00,0000000000000000,NONE,"Fri, 16 Oct 2020, 07:40:05","Fri, 16 Oct 2020, 07:40:05",28.387,2 (Full),94,F7EC8CE1
0.00,0,0.00,0,0,0,134,122,-7,14,4.032,100,35.960,5.293,55,80,2,1,1.9,-7.4461992,112.6785152,0.00,0.00,0.00,0.00,0000000000000000,NONE,"Fri, 16 Oct 2020, 07:40:00","Fri, 16 Oct 2020, 07:40:00",28.386,2 (Full),94,D27B39E5
0.00,0,0.00,0,0,0,129,127,-7,14,4.032,87,35.867,5.293,58,98,1,1,1.8,-7.4462,112.6777088,0.00,0.00,0.00,0.00,0000000000000000,NONE,"Fri, 16 Oct 2020, 07:39:55","Fri, 16 Oct 2020, 07:39:55",28.385,2 (Full),94,212C04E8
0.00,0,0.00,0,0,0,124,132,-7,14,3.996,64,35.763,5.293,58,106,1,1,2,-7.445992,112.6767616,0.00,0.00,0.00,0.00,0000000000000000,NONE,"Fri, 16 Oct 2020, 07:39:50","Fri, 16 Oct 2020, 07:39:50",28.384,2 (Full),94,1657A348
0.00,0,0.00,0,0,0,119,137,-7,14,4.032,74,35.714,5.292,55,102,1,1,2.1,-7.4458864,112.676352,0.00,0.00,0.00,0.00,0000000000000000,NONE,"Fri, 16 Oct 2020, 07:39:45","Fri, 16 Oct 2020, 07:39:46",28.383,2 (Full),94,3E7DE20B
0.00,0,0.00,0,0,0,114,142,-7,14,4.032,83,35.634,5.292,32,58,1,1,2.4,-7.4458416,112.675712,0.00,0.00,0.00,0.00,0000000000000000,NONE,"Fri, 16 Oct 2020, 07:39:40","Fri, 16 Oct 2020, 07:39:40",28.382,2 (Full),94,9C2C296E
0.00,0,0.00,0,0,0,109,147,-7,14,4.050,80,35.572,5.292,61,16,1,1,2.3,-7.446412,112.675392,0.00,0.00,0.00,0.00,0000000000000000,NONE,"Fri, 16 Oct 2020, 07:39:35","Fri, 16 Oct 2020, 07:39:35",28.381,2 (Full),94,E9B191CC
0.00,0,0.00,0,0,0,104,152,-7,14,4.032,70,35.521,5.292,74,14,1,1,2.4,-7.4469056,112.675264,0.00,0.00,0.00,0.00,0000000000000000,NONE,"Fri, 16 Oct 2020, 07:39:30","Fri, 16 Oct 2020, 07:39:30",28.380,2 (Full),94,47FBBDC1
0.00,0,0.00,0,0,0,99,157,-7,14,4.032,70,35.393,5.292,73,16,2,1,2.2,-7.4480344,112.6749312,0.00,0.00,0.00,0.00,0000000000000000,NONE,"Fri, 16 Oct 2020, 07:39:25","Fri, 16 Oct 2020, 07:39:25",28.379,2 (Full),94,FB218140
0.00,0,0.00,0,0,0,94,162,-7,14,4.032,90,35.278,5.292,70,12,2,1,2.3,-7.4490216,112.6746496,0.00,0.00,0.00,0.00,0000000000000000,NONE,"Fri, 16 Oct 2020, 07:39:20","Fri, 16 Oct 2020, 07:39:20",28.378,2 (Full),94,769C5B06
0.00,0,0.00,0,0,0,89,167,-7,14,3.996,74,35.220,5.292,62,16,2,1,2.4,-7.4495264,112.6745088,0.00,0.00,0.00,0.00,0000000000000000,NONE,"Fri, 16 Oct 2020, 07:39:15","Fri, 16 Oct 2020, 07:39:15",28.377,2 (Full),94,380EF124
0.00,0,0.00,0,0,0,84,172,-7,14,4.068,64,35.122,5.292,49,14,2,1,2.5,-7.4503248,112.6742656,0.00,0.00,0.00,0.00,0000000000000000,NONE,"Fri, 16 Oct 2020, 07:39:10","Fri, 16 Oct 2020, 07:39:13",28.376,2 (Full),94,11D04505
0.00,0,0.00,0,0,0,79,177,-7,14,3.996,64,35.031,5.292,55,16,2,1,2.5,-7.4511784,112.6740224,0.00,0.00,0.00,0.00,0000000000000000,NONE,"Fri, 16 Oct 2020, 07:39:05","Fri, 16 Oct 2020, 07:39:05",28.375,2 (Full),94,562590C2
0.00,0,0.00,0,0,0,74,182,-7,14,4.050,90,34.986,5.292,51,16,2,1,2.3,-7.4515592,112.6738944,0.00,0.00,0.00,0.00,0000000000000000,NONE,"Fri, 16 Oct 2020, 07:39:00","Fri, 16 Oct 2020, 07:39:00",28.374,2 (Full),94,7268B880
0.00,0,0.00,0,0,0,69,187,-7,14,4.032,96,34.900,5.292,51,32,1,1,1.9,-7.4523056,112.6736256,0.00,0.00,0.00,0.00,0000000000000000,NONE,"Fri, 16 Oct 2020, 07:38:55","Fri, 16 Oct 2020, 07:38:55",28.373,2 (Full),94,CFA4E2E1
0.00,0,0.00,0,0,0,64,192,-7,14,4.050,87,34.813,5.292,63,94,1,1,1.8,-7.4525992,112.6729216,0.00,0.00,0.00,0.00,0000000000000000,NONE,"Fri, 16 Oct 2020, 07:38:50","Fri, 16 Oct 2020, 07:38:50",28.372,2 (Full),94,5E744174
0.00,0,0.00,0,0,0,59,197,-7,14,4.032,77,34.761,5.292,53,82,1,1,1.7,-7.4525808,112.6724736,0.00,0.00,0.00,0.00,0000000000000000,NONE,"Fri, 16 Oct 2020, 07:38:45","Fri, 16 Oct 2020, 07:38:45",28.371,2 (Full),94,F812504C
0.00,0,0.00,0,0,0,54,202,-7,14,4.050,77,34.679,5.291,35,84,1,1,1.7,-7.4526704,112.6717696,0.00,0.00,0.00,0.00,0000000000000000,NONE,"Fri, 16 Oct 2020, 07:38:40","Fri, 16 Oct 2020, 07:38:40",28.370,2 (Full),94,771C987D
0.00,0,0.00,0,0,0,49,207,-7,14,4.032,90,34.603,5.291,67,102,2,1,1.8,-7.452604,112.6710016,0.00,0.00,0.00,0.00,0000000000000000,NONE,"Fri, 16 Oct 2020, 07:38:35","Fri, 16 Oct 2020, 07:38:36",28.369,2 (Full),94,1477222C
0.00,0,0.00,0,0,0,44,212,-7,14,4.050,90,34.547,5.291,72,102,1,1,1.7,-7.4524888,112.6704768,0.00,0.00,0.00,0.00,0000000000000000,NONE,"Fri, 16 Oct 2020, 07:38:30","Fri, 16 Oct 2020, 07:38:35",28.368,2 (Full),94,7E069E20
0.00,0,0.00,0,0,0,39,217,-7,14,4.032,90,34.424,5.291,74,114,2,1,1.7,-7.452184,112.6693888,0.00,0.00,0.00,0.00,0000000000000000,NONE,"Fri, 16 Oct 2020, 07:38:25","Fri, 16 Oct 2020, 07:38:33",28.367,2 (Full),94,C576B2A1
0.00,0,0.00,0,0,0,34,222,-7,14,4.050,90,34.300,5.291,75,140,1,1,1.8,-7.4515208,112.6684672,0.00,0.00,0.00,0.00,0000000000000000,NONE,"Fri, 16 Oct 2020, 07:38:20","Fri, 16 Oct 2020, 07:38:32",28.366,2 (Full),94,DCBE4C0B
0.00,0,0.00,0,0,0,29,227,-7,14,4.032,77,34.238,5.291,76,144,1,1,1.8,-7.4510624,112.6681472,0.00,0.00,0.00,0.00,0000000000000000,NONE,"Fri, 16 Oct 2020, 07:38:15","Fri, 16 Oct 2020, 07:38:16",28.365,2 (Full),94,3C4A9FD5
0.00,0,0.00,0,0,0,24,232,-7,14,4.050,74,34.112,5.291,68,134,3,1,1.7,-7.4502328,112.6673792,0.00,0.00,0.00,0.00,0000000000000000,NONE,"Fri, 16 Oct 2020, 07:38:10","Fri, 16 Oct 2020, 07:38:10",28.364,2 (Full),94,D4BE51AB
0.00,0,0.00,0,0,0,19,237,-7,14,4.032,67,33.996,5.291,75,128,2,1,1.7,-7.4495,112.6665984,0.00,0.00,0.00,0.00,0000000000000000,NONE,"Fri, 16 Oct 2020, 07:38:05","Fri, 16 Oct 2020, 07:38:05",28.363,2 (Full),94,36D81B73
0.00,0,0.00,0,0,0,14,242,-7,14,4.032,58,33.934,5.291,70,118,2,1,1.7,-7.4491912,112.6661504,0.00,0.00,0.00,0.00,0000000000000000,NONE,"Fri, 16 Oct 2020, 07:38:00","Fri, 16 Oct 2020, 07:38:00",28.362,2 (Full),94,E8CA5A1B
0.00,0,0.00,0,0,0,9,247,-7,14,4.014,61,33.824,5.291,50,118,2,1,1.8,-7.4487536,112.6652928,0.00,0.00,0.00,0.00,0000000000000000,NONE,"Fri, 16 Oct 2020, 07:37:55","Fri, 16 Oct 2020, 07:37:55",28.361,2 (Full),94,F89C9C66
0.00,0,0.00,0,0,0,4,252,-7,14,4.032,58,33.740,5.291,46,110,2,1,1.7,-7.44842,112.6646144,0.00,0.00,0.00,0.00,0000000000000000,NONE,"Fri, 16 Oct 2020, 07:37:50","Fri, 16 Oct 2020, 07:37:51",28.360,2 (Full),94,3A0660C2
0.00,0,0.00,0,0,0,255,1,-7,14,4.014,80,33.702,5.290,57,106,2,1,1.7,-7.448304,112.664256,0.00,0.00,0.00,0.00,0000000000000000,NONE,"Fri, 16 Oct 2020, 07:37:45","Fri, 16 Oct 2020, 07:37:45",28.359,2 (Full),94,EC5A3E83
0.00,0,0.00,0,0,0,250,6,-7,14,4.032,90,33.592,5.290,78,100,2,1,1.8,-7.4480208,112.6632064,0.00,0.00,0.00,0.00,0000000000000000,NONE,"Fri, 16 Oct 2020, 07:37:40","Fri, 16 Oct 2020, 07:37:40",28.358,2 (Full),94,087AE7B0
0.00,0,0.00,0,0,0,245,11,-7,14,4.050,100,33.467,5.290,66,102,2,1,1.6,-7.4478024,112.662144,0.00,0.00,0.00,0.00,0000000000000000,NONE,"Fri, 16 Oct 2020, 07:37:35","Fri, 16 Oct 2020, 07:37:35",28.357,2 (Full),94,2848CF5F
0.00,0,0.00,0,0,0,240,16,-7,14,4.014,100,33.412,5.290,66,102,2,1,1.6,-7.4477008,112.6616576,0.00,0.00,0.00,0.00,0000000000000000,NONE,"Fri, 16 Oct 2020, 07:37:30","Fri, 16 Oct 2020, 07:37:30",28.356,2 (Full),94,DBF4243F
0.00,0,0.00,0,0,0,235,21,-7,14,4.050,100,33.305,5.290,60,104,1,1,1.6,-7.4474832,112.6607104,0.00,0.00,0.00,0.00,0000000000000000,NONE,"Fri, 16 Oct 2020, 07:37:25","Fri, 16 Oct 2020, 07:37:25",28.355,2 (Full),94,D4656996
0.00,0,0.00,0,0,0,230,26,-7,14,4.032,100,33.207,5.290,63,102,2,1,1.5,-7.4472952,112.6598272,0.00,0.00,0.00,0.00,0000000000000000,NONE,"Fri, 16 Oct 2020, 07:37:20","Fri, 16 Oct 2020, 07:37:20",28.354,2 (Full),94,C3770FE0
0.00,0,0.00,0,0,0,225,31,-7,14,4.050,87,33.155,5.290,66,100,2,1,1.5,-7.4471968,112.6593536,0.00,0.00,0.00,0.00,0000000000000000,NONE,"Fri, 16 Oct 2020, 07:37:15","Fri, 16 Oct 2020, 07:37:15",28.353,2 (Full),94,EB505E15
0.00,0,0.00,0,0,0,220,36,-7,14,4.014,74,33.049,5.290,44,94,2,1,1.5,-7.4470336,112.6584576,0.00,0.00,0.00,0.00,0000000000000000,NONE,"Fri, 16 Oct 2020, 07:37:10","Fri, 16 Oct 2020, 07:37:10",28.352,2 (Full),94,337458B6
0.00,0,0.00,0,0,0,215,41,-7,14,4.050,96,32.983,5.290,55,94,2,1,1.5,-7.446956,112.6578432,0.00,0.00,0.00,0.00,0000000000000000,NONE,"Fri, 16 Oct 2020, 07:37:05","Fri, 16 Oct 2020, 07:37:05",28.351,2 (Full),94,9917711B
0.00,0,0.00,0,0,0,210,46,-7,14,4.032,100,32.937,5.290,59,94,1,1,1.5,-7.4469104,112.657408,0.00,0.00,0.00,0.00,0000000000000000,NONE,"Fri, 16 Oct 2020, 07:37:00","Fri, 16 Oct 2020, 07:37:00",28.350,2 (Full),94,6E4F0F04
0.00,0,0.00,0,0,0,205,51,-7,14,4.050,77,32.829,5.290,72,94,1,1,1.8,-7.4467792,112.6563584,0.00,0.00,0.00,0.00,0000000000000000,NONE,"Fri, 16 Oct 2020, 07:36:55","Fri, 16 Oct 2020, 07:36:55",28.349,2 (Full),94,3EC99FD3
0.00,0,0.00,0,0,0,200,56,-7,14,4.050,74,32.716,5.290,73,96,1,1,1.8,-7.4466688,112.6553472,0.00,0.00,0.00,0.00,0000000000000000,NONE,"Fri, 16 Oct 2020, 07:36:50","Fri, 16 Oct 2020, 07:36:50",28.348,2 (Full),94,35D14DC8
0.00,0,0.00,0,0,0,195,61,-7,14,4.050,77,32.655,5.289,80,96,1,1,1.9,-7.4465968,112.6547712,0.00,0.00,0.00,0.00,0000000000000000,NONE,"Fri, 16 Oct 2020, 07:36:45","Fri, 16 Oct 2020, 07:36:45",28.347,2 (Full),94,7AD495F8
0.00,0,0.00,0,0,0,190,66,-7,14,4.050,83,32.527,5.289,72,96,1,1,2.2,-7.4464648,112.653632,0.00,0.00,0.00,0.00,0000000000000000,NONE,"Fri, 16 Oct 2020, 07:36:40","Fri, 16 Oct 2020, 07:36:40",28.346,2 (Full),94,30F8F69C
0.00,0,0.00,0,0,0,185,71,-7,14,4.032,74,32.401,5.289,67,98,1,1,2.4,-7.4463072,112.6524672,0.00,0.00,0.00,0.00,0000000000000000,NONE,"Fri, 16 Oct 2020, 07:36:35","Fri, 16 Oct 2020, 07:36:35",28.345,2 (Full),94,11E9354F
0.00,0,0.00,0,0,0,180,76,-7,14,4.050,83,32.345,5.289,52,100,1,1,2.5,-7.4462336,112.6520192,0.00,0.00,0.00,0.00,0000000000000000,NONE,"Fri, 16 Oct 2020, 07:36:30","Fri, 16 Oct 2020, 07:36:31",28.344,2 (Full),94,45325AE6
0.00,0,0.00,0,0,0,175,81,-7,14,4.032,61,32.276,5.289,24,28,1,1,2.8,-7.4462496,112.6514944,0.00,0.00,0.00,0.00,0000000000000000,NONE,"Fri, 16 Oct 2020, 07:36:25","Fri, 16 Oct 2020, 07:36:27",28.343,2 (Full),94,4B873BB2
0.00,0,0.00,0,0,0,170,86,-7,14,4.050,61,32.215,5.289,66,16,2,1,2.8,-7.4469312,112.651264,0.00,0.00,0.00,0.00,0000000000000000,NONE,"Fri, 16 Oct 2020, 07:36:20","Fri, 16 Oct 2020, 07:36:20",28.342,2 (Full),94,EB6BB5A7
0.00,0,0.00,0,0,0,165,91,-7,14,4.032,70,32.160,5.289,48,16,2,1,2.7,-7.4473632,112.6511488,0.00,0.00,0.00,0.00,0000000000000000,NONE,"Fri, 16 Oct 2020, 07:36:15","Fri, 16 Oct 2020, 07:36:15",28.341,2 (Full),94,E6E022DB
0.00,0,0.00,0,0,0,160,96,-7,14,4.050,77,32.084,5.289,49,20,2,1,2.6,-7.4480216,112.6509184,0.00,0.00,0.00,0.00,0000000000000000,NONE,"Fri, 16 Oct 2020, 07:36:10","Fri, 16 Oct 2020, 07:36:13",28.340,2 (Full),94,AB2BB73C
0.00,0,0.00,0,0,0,155,101,-7,14,4.032,77,32.002,5.289,49,22,2,1,2.5,-7.4487136,112.6506752,0.00,0.00,0.00,0.00,0000000000000000,NONE,"Fri, 16 Oct 2020, 07:36:05","Fri, 16 Oct 2020, 07:36:05",28.339,2 (Full),94,380CF206
0.00,0,0.00,0,0,0,150,106,-7,14,4.050,80,31.961,5.289,33,20,2,1,2.5,-7.4490288,112.6505472,0.00,0.00,0.00,0.00,0000000000000000,NONE,"Fri, 16 Oct 2020, 07:36:00","Fri, 16 Oct 2020, 07:36:00",28.338,2 (Full),94,70881957
0.00,0,0.00,0,0,0,145,111,-7,14,4.032,80,31.892,5.289,69,16,2,1,2.6,-7.4497456,112.6503168,0.00,0.00,0.00,0.00,0000000000000000,NONE,"Fri, 16 Oct 2020, 07:35:55","Fri, 16 Oct 2020, 07:35:55",28.337,2 (Full),94,3BE0991C
0.00,0,0.00,0,0,0,140,116,-7,14,4.050,87,31.771,5.289,77,12,2,1,2.8,-7.450844,112.6500224,0.00,0.00,0.00,0.00,0000000000000000,NONE,"Fri, 16 Oct 2020, 07:35:50","Fri, 16 Oct 2020, 07:35:50",28.336,2 (Full),94,D147B7AC
0.00,0,0.00,0,0,0,135,121,-7,14,4.032,87,31.707,5.289,72,12,2,1,2.8,-7.451404,112.6498816,0.00,0.00,0.00,0.00,0000000000000000,NONE,"Fri, 16 Oct 2020, 07:35:45","Fri, 16 Oct 2020, 07:35:46",28.335,2 (Full),94,B6CCECB5
0.00,0,0.00,0,0,0,130,126,-7,14,4.050,77,31.595,5.288,48,12,2,1,2.8,-7.4523304,112.6496768,0.00,0.00,0.00,0.00,0000000000000000,NONE,"Fri, 16 Oct 2020, 07:35:40","Fri, 16 Oct 2020, 07:35:41",28.334,2 (Full),94,699ECA0E
0.00,0,0.00,0,0,0,125,131,-7,14,4.032,74,31.534,5.288,12,10,2,1,2.7,-7.4527456,112.6495616,0.00,0.00,0.00,0.00,0000000000000000,NONE,"Fri, 16 Oct 2020, 07:35:35","Fri, 16 Oct 2020, 07:35:35",28.333,2 (Full),94,D53C647A
0.00,0,0.00,0,0,0,120,136,-7,14,4.050,74,31.534,5.288,9,14,2,1,2.7,-7.4528208,112.6495488,0.00,0.00,0.00,0.00,0000000000000000,NONE,"Fri, 16 Oct 2020, 07:35:30","Fri, 16 Oct 2020, 07:35:30",28.332,2 (Full),94,20F74848
0.00,0,0.00,0,0,0,115,141,-7,14,4.068,70,31.534,5.288,15,12,2,1,2.8,-7.4529728,112.6494976,0.00,0.00,0.00,0.00,0000000000000000,NONE,"Fri, 16 Oct 2020, 07:35:25","Fri, 16 Oct 2020, 07:35:25",28.331,2 (Full),94,69C676FE
0.00,0,0.00,0,0,0,110,146,-7,14,3.996,83,31.496,5.288,51,10,2,1,3,-7.4535704,112.6493824,0.00,0.00,0.00,0.00,0000000000000000,NONE,"Fri, 16 Oct 2020, 07:35:20","Fri, 16 Oct 2020, 07:35:20",28.330,2 (Full),94,073B0FB4
0.00,0,0.00,0,0,0,105,151,-7,14,4.050,83,31.454,5.288,30,16,2,1,3.1,-7.453896,112.6493056,0.00,0.00,0.00,0.00,0000000000000000,NONE,"Fri, 16 Oct 2020, 07:35:15","Fri, 16 Oct 2020, 07:35:16",28.329,2 (Full),94,08C644E6
0.00,0,0.00,0,0,0,100,156,-7,14,4.032,90,31.406,5.288,42,10,2,1,3,-7.454356,112.6492032,0.00,0.00,0.00,0.00,0000000000000000,NONE,"Fri, 16 Oct 2020, 07:35:10","Fri, 16 Oct 2020, 07:35:10",28.328,2 (Full),94,61311D5F
0.00,0,0.00,0,0,0,95,161,-7,14,4.014,96,31.321,5.288,49,4,2,1,3,-7.4551832,112.6491008,0.00,0.00,0.00,0.00,0000000000000000,NONE,"Fri, 16 Oct 2020, 07:35:05","Fri, 16 Oct 2020, 07:35:05",28.327,2 (Full),94,7F67EA7C
0.00,0,0.00,0,0,0,90,166,-7,14,4.032,80,31.280,5.288,26,8,1,1,2.8,-7.4554888,112.649088,0.00,0.00,0.00,0.00,0000000000000000,NONE,"Fri, 16 Oct 2020, 07:35:00","Fri, 16 Oct 2020, 07:35:00",28.326,2 (Full),94,9F22A1E7
0.00,0,0.00,0,0,0,85,171,-7,14,4.050,100,31.243,5.288,4,2,1,1,2.6,-7.4557544,112.6490752,0.00,0.00,0.00,0.00,0000000000000000,NONE,"Fri, 16 Oct 2020, 07:34:55","Fri, 16 Oct 2020, 07:34:55",28.325,2 (Full),94,B3049175
0.00,0,0.00,0,0,0,80,176,-7,14,4.032,100,31.243,5.288,0,0,2,1,2.7,-7.4558008,112.6490752,0.00,0.00,0.00,0.00,0000000000000000,NONE,"Fri, 16 Oct 2020, 07:34:50","Fri, 16 Oct 2020, 07:34:50",28.324,2 (Full),94,02B0A896
0.00,0,0.00,0,0,0,75,181,-7,14,4.014,100,31.243,5.288,18,0,2,1,2.7,-7.455844,112.6490752,0.00,0.00,0.00,0.00,0000000000000000,NONE,"Fri, 16 Oct 2020, 07:34:45","Fri, 16 Oct 2020, 07:34:45",28.323,2 (Full),94,08CBB757
0.00,0,0.00,0,0,0,70,186,-7,14,4.032,96,31.185,5.288,69,0,3,1,2.6,-7.4565632,112.6490496,0.00,0.00,0.00,0.00,0000000000000000,NONE,"Fri, 16 Oct 2020, 07:34:40","Fri, 16 Oct 2020, 07:34:41",28.322,2 (Full),94,D0E43651
0.00,0,0.00,0,0,0,65,191,-7,14,4.014,96,31.067,5.288,67,6,2,1,2.7,-7.457628,112.6490112,0.00,0.00,0.00,0.00,0000000000000000,NONE,"Fri, 16 Oct 2020, 07:34:35","Fri, 16 Oct 2020, 07:34:35",28.321,2 (Full),94,635ED129
0.00,0,0.00,0,0,0,60,196,-7,14,4.032,93,31.011,5.288,60,0,2,1,2.8,-7.4581136,112.6489472,0.00,0.00,0.00,0.00,0000000000000000,NONE,"Fri, 16 Oct 2020, 07:34:30","Fri, 16 Oct 2020, 07:34:30",28.320,2 (Full),94,B6390827
0.00,0,0.00,0,0,0,55,201,-7,14,4.014,77,30.903,5.288,81,340,2,1,3,-7.4591392,112.6491648,0.00,0.00,0.00,0.00,0000000000000000,NONE,"Fri, 16 Oct 2020, 07:34:25","Fri, 16 Oct 2020, 07:34:25",28.319,2 (Full),94,8B324C91
0.00,0,0.00,0,0,0,50,206,-7,14,4.032,70,30.769,5.288,75,346,2,1,2.8,-7.4602648,112.6495616,0.00,0.00,0.00,0.00,0000000000000000,NONE,"Fri, 16 Oct 2020, 07:34:20","Fri, 16 Oct 2020, 07:34:22",28.318,2 (Full),94,8198197D
0.00,0,0.00,0,0,0,45,211,-7,14,4.050,70,30.706,5.288,66,352,2,1,2.7,-7.4607984,112.649664,0.00,0.00,0.00,0.00,0000000000000000,NONE,"Fri, 16 Oct 2020, 07:34:15","Fri, 16 Oct 2020, 07:34:15",28.317,2 (Full),94,57DF1F95
0.00,0,0.00,0,0,0,40,216,-7,14,4.032,96,30.602,5.287,60,6,2,1,2.7,-7.461724,112.649664,0.00,0.00,0.00,0.00,0000000000000000,NONE,"Fri, 16 Oct 2020, 07:34:10","Fri, 16 Oct 2020, 07:34:10",28.316,2 (Full),94,D70A6D48
0.00,0,0.00,0,0,0,35,221,-7,14,4.014,100,30.513,5.287,26,358,1,1,2.7,-7.4624344,112.6496768,0.00,0.00,0.00,0.00,0000000000000000,NONE,"Fri, 16 Oct 2020, 07:34:05","Fri, 16 Oct 2020, 07:34:05",28.315,2 (Full),94,58F2FC16
0.00,0,0.00,0,0,0,30,226,-7,14,4.050,80,30.492,5.287,21,2,1,1,2.5,-7.4625864,112.6496768,0.00,0.00,0.00,0.00,0000000000000000,NONE,"Fri, 16 Oct 2020, 07:34:00","Fri, 16 Oct 2020, 07:34:00",28.314,2 (Full),94,9BCEB5BC
0.00,0,0.00,0,0,0,25,231,-7,14,4.032,74,30.475,5.287,15,2,1,1,2.3,-7.4627768,112.6496768,0.00,0.00,0.00,0.00,0000000000000000,NONE,"Fri, 16 Oct 2020, 07:33:55","Fri, 16 Oct 2020, 07:33:55",28.313,2 (Full),94,97B77274
0.00,0,0.00,0,0,0,20,236,-7,14,4.050,80,30.445,5.287,30,2,1,1,2.4,-7.4632056,112.649664,0.00,0.00,0.00,0.00,0000000000000000,NONE,"Fri, 16 Oct 2020, 07:33:50","Fri, 16 Oct 2020, 07:33:50",28.312,2 (Full),94,6DBEC7F8
0.00,0,0.00,0,0,0,15,241,-7,14,4.014,87,30.420,5.287,36,12,1,1,2.4,-7.4634696,112.6496384,0.00,0.00,0.00,0.00,0000000000000000,NONE,"Fri, 16 Oct 2020, 07:33:45","Fri, 16 Oct 2020, 07:33:45",28.311,2 (Full),94,1969997B
0.00,0,0.00,0,0,0,10,246,-7,14,4.014,93,30.366,5.287,41,2,2,1,2.2,-7.4639712,112.6496128,0.00,0.00,0.00,0.00,0000000000000000,NONE,"Fri, 16 Oct 2020, 07:33:40","Fri, 16 Oct 2020, 07:33:43",28.310,2 (Full),94,545127BC
0.00,0,0.00,0,0,0,5,251,-7,14,4.032,93,30.288,5.287,49,356,2,1,2.2,-7.4647248,112.6495232,0.00,0.00,0.00,0.00,0000000000000000,NONE,"Fri, 16 Oct 2020, 07:33:35","Fri, 16 Oct 2020, 07:33:35",28.309,2 (Full),94,A317C221
0.00,0,0.00,0,0,0,0,0,-7,14,4.050,87,30.247,5.287,46,354,1,1,2.2,-7.4650944,112.6495744,0.00,0.00,0.00,0.00,0000000000000000,NONE,"Fri, 16 Oct 2020, 07:33:30","Fri, 16 Oct 2020, 07:33:30",28.308,2 (Full),94,961197C0
0.00,0,0.00,0,0,0,251,5,-7,14,4.014,93,30.187,5.287,40,354,1,1,2.3,-7.4656216,112.6496128,0.00,0.00,0.00,0.00,0000000000000000,NONE,"Fri, 16 Oct 2020, 07:33:25","Fri, 16 Oct 2020, 07:33:25",28.307,2 (Full),94,0ECBE8ED
0.00,0,0.00,0,0,0,246,10,-7,14,4.050,83,30.098,5.287,81,354,2,1,2.4,-7.4665688,112.6497024,0.00,0.00,0.00,0.00,0000000000000000,NONE,"Fri, 16 Oct 2020, 07:33:20","Fri, 16 Oct 2020, 07:33:20",28.306,2 (Full),94,58EE4BC1
0.00,0,0.00,0,0,0,241,15,-7,14,4.032,83,30.031,5.287,81,0,2,1,2.4,-7.4671928,112.6497408,0.00,0.00,0.00,0.00,0000000000000000,NONE,"Fri, 16 Oct 2020, 07:33:15","Fri, 16 Oct 2020, 07:33:15",28.305,2 (Full),94,175B4C5B
0.00,0,0.00,0,0,0,236,20,-7,14,4.050,83,29.896,5.287,72,2,1,1,2.4,-7.4683928,112.649664,0.00,0.00,0.00,0.00,0000000000000000,NONE,"Fri, 16 Oct 2020, 07:33:10","Fri, 16 Oct 2020, 07:33:10",28.304,2 (Full),94,D43FB67F
0.00,0,0.00,0,0,0,231,25,-7,14,4.050,61,29.783,5.287,60,8,2,1,2.1,-7.4693648,112.6496128,0.00,0.00,0.00,0.00,0000000000000000,NONE,"Fri, 16 Oct 2020, 07:33:05","Fri, 16 Oct 2020, 07:33:05",28.303,2 (Full),94,B85AA5B6
0.00,0,0.00,0,0,0,226,30,-7,14,4.050,67,29.733,5.287,52,14,2,1,2.1,-7.4698008,112.6495232,0.00,0.00,0.00,0.00,0000000000000000,NONE,"Fri, 16 Oct 2020, 07:33:00","Fri, 16 Oct 2020, 07:33:01",28.302,2 (Full),94,D40DEEEE
0.00,0,0.00,0,0,0,221,35,-7,14,4.014,80,29.650,5.286,56,12,2,1,2,-7.4705104,112.649344,0.00,0.00,0.00,0.00,0000000000000000,NONE,"Fri, 16 Oct 2020, 07:32:55","Fri, 16 Oct 2020, 07:32:55",28.301,2 (Full),94,E48FF8B0
0.00,0,0.00,0,0,0,216,40,-7,14,4.050,77,29.550,5.286,65,8,2,1,2,-7.471452,112.6491648,0.00,0.00,0.00,0.00,0000000000000000,NONE,"Fri, 16 Oct 2020, 07:32:50","Fri, 16 Oct 2020, 07:32:50",28.300,2 (Full),94,187763D8
0.00,0,0.00,0,0,0,211,45,-7,14,4.050,80,29.496,5.286,60,6,2,1,2,-7.471916,112.6491008,0.00,0.00,0.00,0.00,0000000000000000,NONE,"Fri, 16 Oct 2020, 07:32:45","Fri, 16 Oct 2020, 07:32:45",28.299,2 (Full),94,A7B6DBF1
0.00,0,0.00,0,0,0,206,50,-7,14,4.050,90,29.386,5.286,77,0,2,1,2.1,-7.4730072,112.6490496,0.00,0.00,0.00,0.00,0000000000000000,NONE,"Fri, 16 Oct 2020, 07:32:40","Fri, 16 Oct 2020, 07:32:41",28.298,2 (Full),94,78316BA8
0.00,0,0.00,0,0,0,201,55,-7,14,4.050,70,29.262,5.286,67,0,1,1,2.1,-7.4741048,112.6490368,0.00,0.00,0.00,0.00,0000000000000000,NONE,"Fri, 16 Oct 2020, 07:32:35","Fri, 16 Oct 2020, 07:32:35",28.297,2 (Full),94,D6D684EA
0.00,0,0.00,0,0,0,186,70,-7,14,4.014,87,29.002,5.286,52,12,2,1,2.1,-7.4764488,112.648832,0.00,0.00,0.00,0.00,0000000000000000,NONE,"Fri, 16 Oct 2020, 07:32:20","Fri, 16 Oct 2020, 07:32:23",28.294,2 (Full),94,9F854F9D
0.00,0,0.00,0,0,0,181,75,-7,14,4.014,90,28.959,5.286,46,10,2,1,2,-7.4768096,112.6487552,0.00,0.00,0.00,0.00,0000000000000000,NONE,"Fri, 16 Oct 2020, 07:32:15","Fri, 16 Oct 2020, 07:32:22",28.293,2 (Full),94,912514ED
0.00,0,0.00,0,0,0,176,80,-7,14,4.014,90,28.878,5.286,49,6,1,1,2.1,-7.4775344,112.6486016,0.00,0.00,0.00,0.00,0000000000000000,NONE,"Fri, 16 Oct 2020, 07:32:10","Fri, 16 Oct 2020, 07:32:21",28.292,2 (Full),94,0E90A3C9
0.00,0,0.00,0,0,0,171,85,-7,14,4.086,77,28.800,5.286,56,12,2,1,2.3,-7.4782704,112.6484864,0.00,0.00,0.00,0.00,0000000000000000,NONE,"Fri, 16 Oct 2020, 07:32:05","Fri, 16 Oct 2020, 07:32:20",28.291,2 (Full),94,6ECCD7D4
0.00,0,0.00,0,0,0,166,90,-7,14,4.014,0,28.753,5.286,60,18,2,1,2.5,-7.4786976,112.6483584,0.00,0.00,0.00,0.00,0000000000000001,NONE,"Fri, 16 Oct 2020, 07:32:00","Fri, 16 Oct 2020, 07:32:19",28.290,2 (Full),94,A24C532E
0.00,0,0.00,0,0,0,161,95,-7,14,4.050,0,28.656,5.286,58,34,2,1,2.7,-7.4795136,112.6479744,0.00,0.00,0.00,0.00,0000000000000000,NONE,"Fri, 16 Oct 2020, 07:31:55","Fri, 16 Oct 2020, 07:32:18",28.289,2 (Full),94,445B6C45
0.00,0,0.00,0,0,0,156,100,-7,14,4.050,0,28.573,5.285,28,44,1,1,2.5,-7.4799984,112.6475648,0.00,0.00,0.00,0.00,0000000000000000,NONE,"Fri, 16 Oct 2020, 07:31:50","Fri, 16 Oct 2020, 07:32:17",28.288,2 (Full),94,C7262906
0.00,0,0.00,0,0,0,151,105,-7,14,4.068,54,28.550,5.285,21,34,1,1,2.3,-7.4801544,112.6474112,0.00,0.00,0.00,0.00,0000000000000000,NONE,"Fri, 16 Oct 2020, 07:31:45","Fri, 16 Oct 2020, 07:32:16",28.287,2 (Full),94,BBB31D07
0.00,0,0.00,0,0,0,146,110,-7,14,4.068,54,28.501,5.285,49,22,2,1,2.1,-7.480608,112.647168,0.00,0.00,0.00,0.00,0000000000000000,NONE,"Fri, 16 Oct 2020, 07:31:40","Fri, 16 Oct 2020, 07:32:15",28.286,2 (Full),94,A37E0864
0.00,0,0.00,0,0,0,141,115,-7,14,4.068,54,28.423,5.285,35,70,2,1,2,-7.4811536,112.6468096,0.00,0.00,0.00,0.00,0000000000000000,NONE,"Fri, 16 Oct 2020, 07:31:35","Fri, 16 Oct 2020, 07:32:14",28.285,2 (Full),94,0B928B91
0.00,0,0.00,0,0,0,136,120,-7,14,4.050,54,28.394,5.285,33,98,2,1,2.1,-7.4811784,112.646528,0.00,0.00,0.00,0.00,0000000000000000,NONE,"Fri, 16 Oct 2020, 07:31:30","Fri, 16 Oct 2020, 07:32:13",28.284,2 (Full),94,186C13FB
0.00,0,0.00,0,0,0,131,125,-7,14,4.050,67,28.334,5.285,44,110,2,1,2.2,-7.4809816,112.6459648,0.00,0.00,0.00,0.00,0000000000000000,NONE,"Fri, 16 Oct 2020, 07:31:25","Fri, 16 Oct 2020, 07:32:12",28.283,2 (Full),94,11D7FA7A
0.00,0,0.00,0,0,0,126,130,-7,14,4.050,74,28.260,5.285,38,114,2,1,2.1,-7.4807272,112.6453504,0.00,0.00,0.00,0.00,0000000000000000,NONE,"Fri, 16 Oct 2020, 07:31:20","Fri, 16 Oct 2020, 07:31:20",28.282,2 (Full),94,5E040B3E
0.00,0,0.00,0,0,0,121,135,-7,14,4.050,74,28.229,5.285,48,116,1,1,2.1,-7.4805816,112.6450688,0.00,0.00,0.00,0.00,0000000000000000,NONE,"Fri, 16 Oct 2020, 07:31:15","Fri, 16 Oct 2020, 07:31:15",28.281,2 (Full),94,E20E1CAB
0.00,0,0.00,0,0,0,116,140,-7,14,4.050,87,28.142,5.285,62,116,1,1,2.1,-7.4802072,112.644288,0.00,0.00,0.00,0.00,0000000000000000,NONE,"Fri, 16 Oct 2020, 07:31:10","Fri, 16 Oct 2020, 07:31:12",28.280,2 (Full),94,2CD585E3
0.00,0,0.00,0,0,0,111,145,-7,14,4.050,87,28.037,5.285,54,130,1,1,2,-7.479708,112.6435072,0.00,0.00,0.00,0.00,0000000000000000,NONE,"Fri, 16 Oct 2020, 07:31:05","Fri, 16 Oct 2020, 07:31:05",28.279,2 (Full),94,E380A77F
0.00,0,0.00,0,0,0,106,150,-7,14,4.050,87,27.992,5.285,54,136,2,1,2.2,-7.4794296,112.6432256,0.00,0.00,0.00,0.00,0000000000000000,NONE,"Fri, 16 Oct 2020, 07:31:00","Fri, 16 Oct 2020, 07:31:00",28.278,2 (Full),94,112DDB7E
0.00,0,0.00,0,0,0,101,155,-7,14,4.050,74,27.890,5.285,62,134,2,1,2.3,-7.4787184,112.64256,0.00,0.00,0.00,0.00,0000000000000000,NONE,"Fri, 16 Oct 2020, 07:30:55","Fri, 16 Oct 2020, 07:30:55",28.277,2 (Full),94,3D85FF96
0.00,0,0.00,0,0,0,96,160,-7,14,4.050,74,27.785,5.285,57,120,1,1,2.3,-7.478144,112.6418176,0.00,0.00,0.00,0.00,0000000000000000,NONE,"Fri, 16 Oct 2020, 07:30:50","Fri, 16 Oct 2020, 07:30:50",28.276,2 (Full),94,01CB279F
0.00,0,0.00,0,0,0,91,165,-7,14,4.050,87,27.738,5.285,45,122,1,1,2.4,-7.47794,112.6414848,0.00,0.00,0.00,0.00,0000000000000000,NONE,"Fri, 16 Oct 2020, 07:30:45","Fri, 16 Oct 2020, 07:30:45",28.275,2 (Full),94,73329F83
0.00,0,0.00,0,0,0,86,170,-7,14,4.050,80,27.651,5.285,70,120,1,1,2.5,-7.4774728,112.6407296,0.00,0.00,0.00,0.00,0000000000000000,NONE,"Fri, 16 Oct 2020, 07:30:40","Fri, 16 Oct 2020, 07:30:40",28.274,2 (Full),94,6C03ADF7
0.00,0,0.00,0,0,0,76,180,-7,14,4.014,90,27.488,5.284,56,110,1,1,2.4,-7.4767992,112.6394368,0.00,0.00,0.00,0.00,0000000000000000,NONE,"Fri, 16 Oct 2020, 07:30:30","Fri, 16 Oct 2020, 07:30:30",28.272,2 (Full),94,D8C79C46
0.00,0,0.00,0,0,0,71,185,-7,14,4.014,96,27.396,5.284,52,108,1,1,2.3,-7.4765304,112.638656,0.00,0.00,0.00,0.00,0000000000000000,NONE,"Fri, 16 Oct 2020, 07:30:25","Fri, 16 Oct 2020, 07:30:29",28.271,2 (Full),94,C0045C1C
0.00,0,0.00,0,0,0,66,190,-7,14,4.014,83,27.311,5.284,57,114,1,1,2.2,-7.4762312,112.6379264,0.00,0.00,0.00,0.00,0000000000000000,NONE,"Fri, 16 Oct 2020, 07:30:20","Fri, 16 Oct 2020, 07:30:28",28.270,2 (Full),94,124451FB
0.00,0,0.00,0,0,0,61,195,-7,14,4.014,87,27.263,5.284,71,114,1,1,2.2,-7.4760184,112.6374784,0.00,0.00,0.00,0.00,0000000000000000,NONE,"Fri, 16 Oct 2020, 07:30:15","Fri, 16 Oct 2020, 07:30:27",28.269,2 (Full),94,850694CD
0.00,0,0.00,0,0,0,56,200,-7,14,4.032,77,27.140,5.284,70,108,1,1,2.1,-7.475608,112.6364416,0.00,0.00,0.00,0.00,0000000000000000,NONE,"Fri, 16 Oct 2020, 07:30:10","Fri, 16 Oct 2020, 07:30:26",28.268,2 (Full),94,E4116004
0.00,0,0.00,0,0,0,51,205,-7,14,4.068,90,27.025,5.284,61,114,1,1,2.1,-7.4752736,112.6354816,0.00,0.00,0.00,0.00,0000000000000000,NONE,"Fri, 16 Oct 2020, 07:30:05","Fri, 16 Oct 2020, 07:30:24",28.267,2 (Full),94,31D480F1
0.00,0,0.00,0,0,0,46,210,-7,14,4.032,0,26.974,5.284,65,116,2,1,2.2,-7.4750672,112.6350592,0.00,0.00,0.00,0.00,0000000000000001,NONE,"Fri, 16 Oct 2020, 07:30:00","Fri, 16 Oct 2020, 07:30:23",28.266,2 (Full),94,38823B63
0.00,0,0.00,0,0,0,41,215,-7,14,4.050,0,26.863,5.284,66,116,2,1,2.4,-7.4746224,112.6341376,0.00,0.00,0.00,0.00,0000000000000000,NONE,"Fri, 16 Oct 2020, 07:29:55","Fri, 16 Oct 2020, 07:30:22",28.265,2 (Full),94,22988908
0.00,0,0.00,0,0,0,36,220,-7,14,4.050,0,26.750,5.284,65,114,1,1,2.4,-7.474208,112.6332032,0.00,0.00,0.00,0.00,0000000000000000,NONE,"Fri, 16 Oct 2020, 07:29:50","Fri, 16 Oct 2020, 07:30:20",28.264,2 (Full),94,ECCF0B31
0.00,0,0.00,0,0,0,31,225,-7,14,4.086,58,26.696,5.284,60,118,1,1,2.5,-7.474004,112.632768,0.00,0.00,0.00,0.00,0000000000000000,NONE,"Fri, 16 Oct 2020, 07:29:45","Fri, 16 Oct 2020, 07:30:19",28.263,2 (Full),94,8AE2166C
0.00,0,0.00,0,0,0,26,230,-7,14,4.050,58,26.606,5.283,32,124,1,1,2.3,-7.4736336,112.6321152,0.00,0.00,0.00,0.00,0000000000000000,NONE,"Fri, 16 Oct 2020, 07:29:40","Fri, 16 Oct 2020, 07:30:18",28.262,2 (Full),94,F39DCE76
0.00,0,0.00,0,0,0,21,235,-7,14,4.050,58,26.579,5.283,9,22,1,1,2.4,-7.4736392,112.6318848,0.00,0.00,0.00,0.00,0000000000000000,NONE,"Fri, 16 Oct 2020, 07:29:35","Fri, 16 Oct 2020, 07:30:17",28.261,2 (Full),94,2A34C074
0.00,0,0.00,0,0,0,16,240,-7,14,4.050,58,26.579,5.283,21,22,1,1,2.5,-7.4737312,112.6318464,0.00,0.00,0.00,0.00,0000000000000000,NONE,"Fri, 16 Oct 2020, 07:29:30","Fri, 16 Oct 2020, 07:30:16",28.260,2 (Full),94,18690C2A
0.00,0,0.00,0,0,0,11,245,-7,14,4.050,58,26.532,5.283,32,18,1,1,2.3,-7.4741688,112.63168,0.00,0.00,0.00,0.00,0000000000000000,NONE,"Fri, 16 Oct 2020, 07:29:25","Fri, 16 Oct 2020, 07:30:14",28.259,2 (Full),94,BB5F1011
0.00,0,0.00,0,0,0,6,250,-7,14,4.050,58,26.469,5.283,51,20,1,1,2.3,-7.4747752,112.6314624,0.00,0.00,0.00,0.00,0000000000000000,NONE,"Fri, 16 Oct 2020, 07:29:20","Fri, 16 Oct 2020, 07:29:20",28.258,2 (Full),94,8803FC3D
0.00,0,0.00,0,0,0,1,255,-7,14,4.050,58,26.427,5.283,60,18,1,1,2.3,-7.4751648,112.6313216,0.00,0.00,0.00,0.00,0000000000000000,NONE,"Fri, 16 Oct 2020, 07:29:15","Fri, 16 Oct 2020, 07:29:15",28.257,2 (Full),94,2CE8BDDF
0.00,0,0.00,0,0,0,252,4,-7,14,4.050,74,26.318,5.283,86,18,1,1,2.4,-7.4761904,112.6309632,0.00,0.00,0.00,0.00,0000000000000000,NONE,"Fri, 16 Oct 2020, 07:29:10","Fri, 16 Oct 2020, 07:29:11",28.256,2 (Full),94,0441DF6F
0.00,0,0.00,0,0,0,247,9,-7,14,4.050,80,26.172,5.283,86,18,1,1,2.3,-7.4774536,112.630528,0.00,0.00,0.00,0.00,0000000000000000,NONE,"Fri, 16 Oct 2020, 07:29:05","Fri, 16 Oct 2020, 07:29:05",28.255,2 (Full),94,EF159922
0.00,0,0.00,0,0,0,242,14,-7,14,4.014,80,26.100,5.283,84,16,1,1,2.4,-7.4780632,112.6303232,0.00,0.00,0.00,0.00,0000000000000000,NONE,"Fri, 16 Oct 2020, 07:29:00","Fri, 16 Oct 2020, 07:29:00",28.254,2 (Full),94,8BE5B925
0.00,0,0.00,0,0,0,237,19,-7,14,4.050,70,25.965,5.283,74,18,2,1,2.3,-7.479188,112.6299264,0.00,0.00,0.00,0.00,0000000000000000,NONE,"Fri, 16 Oct 2020, 07:28:55","Fri, 16 Oct 2020, 07:28:56",28.253,2 (Full),94,74BFF7EC
0.00,0,0.00,0,0,0,232,24,-7,14,4.050,48,25.847,5.283,57,22,1,1,2.3,-7.4801456,112.6295936,0.00,0.00,0.00,0.00,0000000000000000,NONE,"Fri, 16 Oct 2020, 07:28:50","Fri, 16 Oct 2020, 07:28:50",28.252,2 (Full),94,670E3949
0.00,0,0.00,0,0,0,227,29,-7,14,4.050,54,25.799,5.283,61,20,1,1,2.3,-7.4805504,112.6294272,0.00,0.00,0.00,0.00,0000000000000000,NONE,"Fri, 16 Oct 2020, 07:28:45","Fri, 16 Oct 2020, 07:28:45",28.251,2 (Full),94,19FE253A
0.00,0,0.00,0,0,0,222,34,-7,14,4.050,61,25.687,5.283,84,18,2,1,2.3,-7.481568,112.6290176,0.00,0.00,0.00,0.00,0000000000000000,NONE,"Fri, 16 Oct 2020, 07:28:40","Fri, 16 Oct 2020, 07:28:40",28.250,2 (Full),94,F41D80BD
0.00,0,0.00,0,0,0,217,39,-7,14,4.050,54,25.547,5.282,90,20,1,1,2.3,-7.4827832,112.628544,0.00,0.00,0.00,0.00,0000000000000000,NONE,"Fri, 16 Oct 2020, 07:28:35","Fri, 16 Oct 2020, 07:28:39",28.249,2 (Full),94,17A16EF6
0.00,0,0.00,0,0,0,212,44,-7,14,4.050,45,25.472,5.282,89,20,1,1,2.4,-7.4834144,112.6283008,0.00,0.00,0.00,0.00,0000000000000000,NONE,"Fri, 16 Oct 2020, 07:28:30","Fri, 16 Oct 2020, 07:28:37",28.248,2 (Full),94,3C0CEC6C
0.00,0,0.00,0,0,0,207,49,-7,14,4.050,45,25.325,5.282,85,20,1,1,2.4,-7.4846608,112.6278272,0.00,0.00,0.00,0.00,0000000000000000,NONE,"Fri, 16 Oct 2020, 07:28:25","Fri, 16 Oct 2020, 07:28:36",28.247,2 (Full),94,51448202
0.00,0,0.00,0,0,0,202,54,-7,14,4.050,45,25.185,5.282,78,16,1,1,2.6,-7.4858344,112.6273664,0.00,0.00,0.00,0.00,0000000000000000,NONE,"Fri, 16 Oct 2020, 07:28:20","Fri, 16 Oct 2020, 07:28:34",28.246,2 (Full),94,4410C3EB
0.00,0,0.00,0,0,0,197,59,-7,14,4.050,45,25.120,5.282,71,16,2,1,2.5,-7.4863808,112.6272128,0.00,0.00,0.00,0.00,0000000000000000,NONE,"Fri, 16 Oct 2020, 07:28:15","Fri, 16 Oct 2020, 07:28:15",28.245,2 (Full),94,C24274CB
0.00,0,0.00,0,0,0,192,64,-7,14,4.068,48,25.005,5.282,55,22,1,1,2.4,-7.4873248,112.6269056,0.00,0.00,0.00,0.00,0000000000000000,NONE,"Fri, 16 Oct 2020, 07:28:10","Fri, 16 Oct 2020, 07:28:10",28.244,2 (Full),94,59E17CC7
0.00,0,0.00,0,0,0,187,69,-7,14,4.050,51,24.922,5.282,51,16,2,1,2.3,-7.488012,112.6266624,0.00,0.00,0.00,0.00,0000000000000000,NONE,"Fri, 16 Oct 2020, 07:28:05","Fri, 16 Oct 2020, 07:28:05",28.243,2 (Full),94,D863119B
0.00,0,0.00,0,0,0,182,74,-7,14,4.068,58,24.879,5.282,59,10,1,1,2.2,-7.4884112,112.6265856,0.00,0.00,0.00,0.00,0000000000000000,NONE,"Fri, 16 Oct 2020, 07:28:00","Fri, 16 Oct 2020, 07:28:00",28.242,2 (Full),94,811BB0FC
0.00,0,0.00,0,0,0,177,79,-7,14,4.050,61,24.784,5.282,63,8,2,1,2.1,-7.4892648,112.626432,0.00,0.00,0.00,0.00,0000000000000000,NONE,"Fri, 16 Oct 2020, 07:27:55","Fri, 16 Oct 2020, 07:27:55",28.241,2 (Full),94,0F41D9D2
0.00,0,0.00,0,0,0,172,84,-7,14,4.068,64,24.676,5.282,72,8,2,1,2,-7.4902712,112.6262656,0.00,0.00,0.00,0.00,0000000000000000,NONE,"Fri, 16 Oct 2020, 07:27:50","Fri, 16 Oct 2020, 07:27:50",28.240,2 (Full),94,6FAE7661
0.00,0,0.00,0,0,0,167,89,-7,14,4.050,61,24.616,5.282,73,8,2,1,2,-7.4908096,112.6261888,0.00,0.00,0.00,0.00,0000000000000000,NONE,"Fri, 16 Oct 2020, 07:27:45","Fri, 16 Oct 2020, 07:27:45",28.239,2 (Full),94,C9133CAA
0.00,0,0.00,0,0,0,162,94,-7,14,4.068,77,24.494,5.281,73,10,2,1,2,-7.4919064,112.6260096,0.00,0.00,0.00,0.00,0000000000000000,NONE,"Fri, 16 Oct 2020, 07:27:40","Fri, 16 Oct 2020, 07:27:40",28.238,2 (Full),94,98640647
0.00,0,0.00,0,0,0,157,99,-7,14,4.050,83,24.369,5.281,90,8,2,1,2,-7.493068,112.6258176,0.00,0.00,0.00,0.00,0000000000000000,NONE,"Fri, 16 Oct 2020, 07:27:35","Fri, 16 Oct 2020, 07:27:36",28.237,2 (Full),94,E0CEC28C
0.00,0,0.00,0,0,0,152,104,-7,14,4.050,83,24.294,5.281,92,8,1,1,2,-7.4937592,112.6257024,0.00,0.00,0.00,0.00,0000000000000000,NONE,"Fri, 16 Oct 2020, 07:27:30","Fri, 16 Oct 2020, 07:27:30",28.236,2 (Full),94,48C58F63
0.00,0,0.00,0,0,0,147,109,-7,14,4.050,80,24.142,5.281,88,8,2,1,2.1,-7.4951104,112.6254848,0.00,0.00,0.00,0.00,0000000000000000,NONE,"Fri, 16 Oct 2020, 07:27:25","Fri, 16 Oct 2020, 07:27:25",28.235,2 (Full),94,F7AF52F6
0.00,0,0.00,0,0,0,142,114,-7,14,4.068,61,23.998,5.281,81,12,2,1,2.3,-7.4963776,112.6252288,0.00,0.00,0.00,0.00,0000000000000000,NONE,"Fri, 16 Oct 2020, 07:27:20","Fri, 16 Oct 2020, 07:27:20",28.234,2 (Full),94,FD3C653F
0.00,0,0.00,0,0,0,137,119,-7,14,4.050,51,23.930,5.281,77,14,2,1,2.4,-7.4969656,112.625088,0.00,0.00,0.00,0.00,0000000000000000,NONE,"Fri, 16 Oct 2020, 07:27:15","Fri, 16 Oct 2020, 07:27:15",28.233,2 (Full),94,503AAFCD
0.00,0,0.00,0,0,0,132,124,-7,14,4.050,87,23.805,5.281,67,24,1,1,2.4,-7.4980216,112.6247552,0.00,0.00,0.00,0.00,0000000000000000,NONE,"Fri, 16 Oct 2020, 07:27:10","Fri, 16 Oct 2020, 07:27:11",28.232,2 (Full),94,A3FEDB50
